[
  {
    "name": "Jerusalem",
    "lat": 31.7683,
    "lon": 35.2137
  },
  {
    "name": "London",
    "lat": 51.5074,
    "lon": 0.1278
  },
  {
    "name": "Berlin",
    "lat": 52.5200,
    "lon": 13.4050
  },
  {
    "name": "Paris",
    "lat": 48.8566,
    "lon": 2.3522
  },
  {
    "name": "Madrid",
    "lat": 40.4168,
    "lon": -3.7038
  },
  {
    "name": "Rome",
    "lat": 41.9028,
    "lon": 12.4964
  },
  {
    "name": "Moscow",
    "lat": 55.7558,
    "lon": 37.6173
  },
  {
    "name": "New York",
    "lat": 40.7128,
    "lon": -74.0060
  },
  {
    "name": "Los Angeles",
    "lat": 34.0522,
    "lon": -118.2437
  },
  {
    "name": "Sydney",
    "lat": -33.8688,
    "lon": 151.2093
  }
]
